{
  "master": {},
  "aparinki": {
    "coordinates": [
      55.570008,
      37.75956
    ],
    "city": "Апаринки",
    "inCity": "в Апаринках",
    "address": "владение 5",
    "fullAddress": "деревня Апаринки, вл5",
    "phone": 84954093741,
    "yandex": "94bc7c3ca7b6e2dc"
  },
  "arhangelskoe": {
    "coordinates": [
      55.789031,
      37.2962
    ],
    "city": "Архангельское",
    "inCity": "в Архангельском",
    "address": "24А",
    "fullAddress": "городской округ Красногорск, посёлок Архангельское, 24А",
    "phone": 84954093741,
    "yandex": "77f5407e36dc2699"
  },
  "balashiha": {
    "coordinates": [
      55.808705,
      37.95736
    ],
    "city": "Балашиха",
    "inCity": "в Балашихе",
    "address": "улица Текстильщиков, 16",
    "fullAddress": "Балашиха, улица Текстильщиков, 16",
    "phone": 84954093741,
    "yandex": "d0ce310cd887e38f"
  },
  "barviha": {
    "coordinates": [
      55.724165,
      37.280884
    ],
    "city": "Барвиха",
    "inCity": "в Барвихе",
    "address": "",
    "fullAddress": "Одинцовский район, сельское поселение Барвихинское",
    "phone": 84954093741,
    "yandex": "3855baf2a49e4205"
  },
  "butovo": {
    "coordinates": [
      55.530872,
      37.57104
    ],
    "city": "Бутово",
    "inCity": "в Бутово",
    "address": "Проектируемый проезд 185,владение 8с5",
    "fullAddress": "Москва, Проектируемый проезд № 185, вл8с5",
    "phone": 84954093741,
    "yandex": "1db01d8fee1a247a"
  },
  "veshki": {
    "coordinates": [
      55.928071,
      37.608792
    ],
    "city": "Вёшки",
    "inCity": "в Вёшках",
    "address": "Абрикосовая улица, 29",
    "fullAddress": "городской округ Мытищи, посёлок Вёшки, Абрикосовая улица, 29",
    "phone": 84954093741,
    "yandex": "0eb127a91e39b2c6"
  },
  "vidnoe": {
    "coordinates": [
      55.549959,
      37.721211
    ],
    "city": "Видное",
    "inCity": "в Видном",
    "address": "проспект Ленинского Комсомола, 1Д",
    "fullAddress": "Видное, проспект Ленинского Комсомола, 1Д",
    "phone": 84954093741,
    "yandex": "f8274b102e2d7c34"
  },
  "vlasiha": {
    "coordinates": [
      55.685503,
      37.190423
    ],
    "city": "Власиха",
    "inCity": "во Власихе",
    "address": "",
    "fullAddress": "Московская область, посёлок Власиха",
    "phone": 84954093741,
    "yandex": "63557712985a0c10"
  },
  "voskresenskoe": {
    "coordinates": [
      55.517495,
      37.442572
    ],
    "city": "Воскресенское",
    "inCity": "в Воскресенском",
    "address": "",
    "fullAddress": "Москва, поселение Воскресенское",
    "phone": 84954093741,
    "yandex": "d936dd177a893ce6"
  },
  "dedovsk": {
    "coordinates": [
      55.860787,
      37.108605
    ],
    "city": "Дедовск",
    "inCity": "в Дедовске",
    "address": "улица Набережная Речфлота, 1",
    "fullAddress": "городской округ Истра, Дедовск, улица Набережная Речфлота, 1",
    "phone": 84954093741,
    "yandex": "94aeb6da31677c80"
  },
  "dzerzhinskii": {
    "coordinates": [
      55.629155,
      37.842798
    ],
    "city": "Дзержинский",
    "inCity": "в Дзержинском",
    "address": "улица Стройгородок, вл5",
    "fullAddress": "Московская область, Дзержинский, улица Стройгородок, вл5",
    "phone": 84954093741,
    "yandex": "1268fae8f8a876b0"
  },
  "dolgoprudnyi": {
    "coordinates": [
      55.924219,
      37.499902
    ],
    "city": "Долгопрудный",
    "inCity": "в Долгопрудном",
    "address": "Промышленный проезд, 8",
    "fullAddress": "Долгопрудный, Промышленный проезд, 8",
    "phone": 84954093741,
    "yandex": "b215cb0d7fa2cb8a"
  },
  "domodedovo": {
    "coordinates": [
      55.33257,
      37.843427
    ],
    "city": "Домодево",
    "inCity": "в Домодедово",
    "address": "улица Авенариуса, 5",
    "fullAddress": "Домодедово, микрорайон Белые Столбы, улица Авенариуса, 5",
    "phone": 84954093741,
    "yandex": "9d6c05103a6eb952"
  },
  "zheleznodorozhnyi": {
    "coordinates": [
      55.738556,
      38.013613
    ],
    "city": "Железнодорожный",
    "inCity": "в Железнодорожном",
    "address": "Автозаводская улица, 13Б",
    "fullAddress": "Балашиха, микрорайон Железнодорожный, Автозаводская улица, 13Б",
    "phone": 84954093741,
    "yandex": "79fee4fe1995073d"
  },
  "zhukovskii": {
    "coordinates": [
      55.61209,
      38.107163
    ],
    "city": "Жуковский",
    "inCity": "в Жуковском",
    "address": "улица Чапаева, 24",
    "fullAddress": "Жуковский, улица Чапаева, 24",
    "phone": 84954093741,
    "yandex": "8becc8ae3ec6f4c5"
  },
  "zelenograd": {
    "coordinates": [
      56.006603,
      37.192382
    ],
    "city": "Зеленоград",
    "inCity": "в Зеленограде",
    "address": "2-й Западный проезд, 1с4",
    "fullAddress": "Зеленоград, 2-й Западный проезд, 1с4",
    "phone": 84954093741,
    "yandex": "25badd0012883cae"
  },
  "ivanteevka": {
    "coordinates": [
      55.960256,
      37.930105
    ],
    "city": "Ивантеевка",
    "inCity": "в Ивантеевке",
    "address": "улица Толмачёва, 104с1",
    "fullAddress": "Ивантеевка, улица Толмачёва, 104с1",
    "phone": 84954093741,
    "yandex": "dc2ae4d2b3cdafdf"
  },
  "ilinskoe": {
    "coordinates": [
      55.766136,
      37.220265
    ],
    "city": "Ильинское-Усово",
    "inCity": "в Ильинское-Усово",
    "address": "",
    "fullAddress": "городской округ Красногорск, посёлок Ильинское-Усово",
    "phone": 84954093741,
    "yandex": "5cd156b9ffe3ec64"
  },
  "cliazma": {
    "coordinates": [
      55.977743,
      37.85197
    ],
    "city": "Клязьма",
    "inCity": "в Клязьме",
    "address": "Костомаровская улица, 5/1с11",
    "fullAddress": "Пушкино, микрорайон Клязьма, Костомаровская улица, 5/1с11",
    "phone": 84954093741,
    "yandex": "afa6add859d548e1"
  },
  "korolev": {
    "coordinates": [
      55.910003,
      37.799643
    ],
    "city": "Королев",
    "inCity": "в Королеве",
    "address": "Пионерская улица, 4к83",
    "fullAddress": "Королёв, Пионерская улица, 4к83",
    "phone": 84954093741,
    "yandex": "3fedfea67e4288ca"
  },
  "kotelniki": {
    "coordinates": [
      55.665071,
      37.862696
    ],
    "city": "Котельники",
    "inCity": "в Котельниках",
    "address": "Новая улица, 19с3",
    "fullAddress": "Котельники, Новая улица, 19с3",
    "phone": 84954093741,
    "yandex": "ef8bd46bc5d60c04"
  },
  "kraskovo": {
    "coordinates": [
      55.663888,
      37.993922
    ],
    "city": "Красково",
    "inCity": "в Красково",
    "address": "улица Карла Маркса, 121с1",
    "fullAddress": "городской округ Люберцы, посёлок городского типа Красково, улица Карла Маркса, 121с1",
    "phone": 84954093741,
    "yandex": "8a10270707cdfba6"
  },
  "krasnogorsk": {
    "coordinates": [
      55.8289,
      37.343209
    ],
    "city": "Красногорск",
    "inCity": "в Красногорске",
    "address": "Оптический проезд, 1",
    "fullAddress": "Красногорск, Оптический проезд, 1",
    "phone": 84954093741,
    "yandex": "8c5cc48cb1a897f6"
  },
  "kurkino": {
    "coordinates": [
      55.883191,
      37.40822
    ],
    "city": "Куркино",
    "inCity": "в Куркино",
    "address": "Куркинское шоссе, 13к1с1",
    "fullAddress": "Москва, Куркинское шоссе, 13к1с1",
    "phone": 84954093741,
    "yandex": "7e5c16031370918a"
  },
  "lobnia": {
    "coordinates": [
      56.01944,
      37.462613
    ],
    "city": "Лобня",
    "inCity": "в Лобне",
    "address": "улица Гагарина, 9с7",
    "fullAddress": "Лобня, улица Гагарина, 9с7",
    "phone": 84954093741,
    "yandex": "7ed18d8cf571b331"
  },
  "lytkarino": {
    "coordinates": [
      55.589762,
      37.91424
    ],
    "city": "Лыткарино",
    "inCity": "в Лыткарино",
    "address": "улица Степана Степанова, 9Е",
    "fullAddress": "Лыткарино, квартал 3А, улица Степана Степанова, 9Е",
    "phone": 84954093741,
    "yandex": "c73b7631a14e192c"
  },
  "lyubertcy": {
    "coordinates": [
      55.664609,
      37.887327
    ],
    "city": "Люберцы",
    "inCity": "в Люберцах",
    "address": "Котельнический проезд, 25",
    "fullAddress": "Люберцы, Котельнический проезд, 25",
    "phone": 84954093741,
    "yandex": "b5a9f2fa4fe1ec1e"
  },
  "malahovka": {
    "coordinates": [
      55.637083,
      38.008124
    ],
    "city": "Малаховка",
    "inCity": "в Малаховке",
    "address": "Шоссейная улица, 40с5",
    "fullAddress": "городской округ Люберцы, посёлок городского типа Малаховка, Шоссейная улица, 40с5",
    "phone": 84954093741,
    "yandex": "0a8d939850b04ce2"
  },
  "moscow": {
    "coordinates": [
      55.755814,
      37.617635
    ],
    "city": "Москва",
    "inCity": "в Москве",
    "address": "",
    "phone": 84954093741,
    "yandex": "2882d8a93f35322b"
  },
  "moskovskii": {
    "coordinates": [
      55.593354,
      37.371524
    ],
    "city": "Московский",
    "inCity": "в Московском",
    "address": "Радужная улица, 3",
    "fullAddress": "Московский, микрорайон Град Московский, Радужная улица, 3",
    "phone": 84954093741,
    "yandex": "94b70e3f40bd1d91"
  },
  "mytishchi": {
    "coordinates": [
      55.923544,
      37.715516
    ],
    "city": "Мытищи",
    "inCity": "в Мытищах",
    "address": "улица Колпакова, 50с1",
    "fullAddress": "Мытищи, улица Колпакова, 50с1",
    "phone": 84954093741,
    "yandex": "14c3722a9abe9fd5"
  },
  "nahabino": {
    "coordinates": [
      55.841372,
      37.177182
    ],
    "city": "Нахабино",
    "inCity": "в Нахабино",
    "address": "Институтская улица, 17Ас1",
    "fullAddress": "городской округ Красногорск, рабочий посёлок Нахабино, Институтская улица, 17Ас1",
    "phone": 84954093741,
    "yandex": "da1b7e04f8ae4955"
  },
  "novogorsk": {
    "coordinates": [
      55.905068,
      37.340487
    ],
    "city": "Новогорск",
    "inCity": "в Новогорске",
    "address": "Ивановская улица, 15Вс1",
    "fullAddress": "Химки, микрорайон Новогорск, Ивановская улица, 15Вс1",
    "phone": 84954093741,
    "yandex": "49619a45dd2597f8"
  },
  "odintcovo": {
    "coordinates": [
      55.671372,
      37.249209
    ],
    "city": "Одинцово",
    "inCity": "в Одинцово",
    "address": "Западная улица, 7",
    "fullAddress": "Одинцово, Западная улица, 7",
    "phone": 84954093741,
    "yandex": "7e30f3c57b5e4385"
  },
  "opaliha": {
    "coordinates": [
      55.825168,
      37.265954
    ],
    "city": "Опалиха",
    "inCity": "в Опалихе",
    "address": "улица Мира, 25",
    "fullAddress": "Красногорск, микрорайон Опалиха, улица Мира, 25",
    "phone": 84954093741,
    "yandex": "2f4973a377beb836"
  },
  "petrovo-dalnee": {
    "coordinates": [
      55.75974,
      37.168055
    ],
    "city": "Петрово-Дальнее",
    "inCity": "в Петрово-Дальнее",
    "address": "Промышленная улица, с1",
    "fullAddress": "городской округ Красногорск, село Петрово-Дальнее, Промышленная улица, с1",
    "phone": 84954093741,
    "yandex": "9feace978aa44106"
  },
  "pirogovo": {
    "coordinates": [
      55.974181,
      37.734704
    ],
    "city": "Пирогово",
    "inCity": "в Пирогово",
    "address": "Совхозная улица, 27/2",
    "fullAddress": "городской округ Мытищи, деревня Пирогово, Совхозная улица, 27/2",
    "phone": 84954093741,
    "yandex": "c5744df0ccd47aef"
  },
  "podolsk": {
    "coordinates": [
      55.427428,
      37.570429
    ],
    "city": "Подольск",
    "inCity": "в Подольске",
    "address": "Рощинская улица, 3с2",
    "fullAddress": "Подольск, Рощинская улица, 3с2",
    "phone": 84954093741,
    "yandex": "3a81c0bc0bc88339"
  },
  "putilkovo": {
    "coordinates": [
      55.867874,
      37.387604
    ],
    "city": "Путилково",
    "inCity": "в Путилково",
    "address": "Путилковское шоссе, 28",
    "fullAddress": "городской округ Красногорск, деревня Путилково, Путилковское шоссе, 28",
    "phone": 84954093741,
    "yandex": "c389d10ce50ccb85"
  },
  "pushkino": {
    "coordinates": [
      55.990891,
      37.853811
    ],
    "city": "Пушкино",
    "inCity": "в Пушкине",
    "address": "Кудринское шоссе, 6с6",
    "fullAddress": "Московская область, Пушкино, Кудринское шоссе, 6с6",
    "phone": 84954093741,
    "yandex": "12877f19048be05a"
  },
  "rastorguevo": {
    "coordinates": [
      55.53859,
      37.669432
    ],
    "city": "Расторгуево",
    "inCity": "в Расторгуево",
    "address": "Сосновая улица, 15к1",
    "fullAddress": "Видное, район Расторгуево, Сосновая улица, 15к1",
    "phone": 84954093741,
    "yandex": "17e9bb6208af8824"
  },
  "reutov": {
    "coordinates": [
      55.759881,
      37.875649
    ],
    "city": "Реутов",
    "inCity": "в Реутове",
    "address": "улица Гагарина, 33/2Б",
    "fullAddress": "Реутов, улица Гагарина, 33/2Б",
    "phone": 84954093741,
    "yandex": "1ac525cf216ea481"
  },
  "rublevo": {
    "coordinates": [
      55.793019,
      37.353674
    ],
    "city": "Рублево",
    "inCity": "в Рублево",
    "address": "улица Василия Ботылёва, 52с248",
    "fullAddress": "посёлок Рублёво, улица Василия Ботылёва, 52с248",
    "phone": 84954093741,
    "yandex": "5ac9fe07c7ad2fb1"
  },
  "saltykovka": {
    "coordinates": [
      55.752485,
      37.939313
    ],
    "city": "Салтыковка",
    "inCity": "в Салтыковке",
    "address": "Носовихинское шоссе, вл255",
    "fullAddress": "Балашиха, микрорайон Салтыковка, Носовихинское шоссе, вл255",
    "phone": 84954093741,
    "yandex": "c027362d0e481fa9"
  },
  "shodnya": {
    "coordinates": [
      55.948977,
      37.306854
    ],
    "city": "Сходня",
    "inCity": "в Сходне",
    "address": "Железнодорожная улица, 8",
    "fullAddress": "Химки, микрорайон Сходня, Железнодорожная улица, 8",
    "phone": 84954093741,
    "yandex": "ef8f844f56c5cb83"
  },
  "tomilino": {
    "coordinates": [
      55.663167,
      37.963172
    ],
    "city": "Томилино",
    "inCity": "в Томилино",
    "address": "улица Гаршина, 11с7",
    "fullAddress": "городской округ Люберцы, посёлок городского типа Томилино, улица Гаршина, 11с7",
    "phone": 84954093741,
    "yandex": "ae657c223c8012cf"
  },
  "troitck": {
    "coordinates": [
      55.454902,
      37.274757
    ],
    "city": "Троицк",
    "inCity": "в Троицке",
    "address": "Физическая улица, 27с35",
    "fullAddress": "Троицк, Физическая улица, 27с35",
    "phone": 84954093741,
    "yandex": "ffe5becdfb7e1366"
  },
  "himki": {
    "coordinates": [
      55.886292,
      37.432654
    ],
    "city": "Химки",
    "inCity": "в Химках",
    "address": "улица Горшина, 3к2",
    "fullAddress": "Химки, улица Горшина, 3к2",
    "phone": 84954093741,
    "yandex": "8cbe21192e0cf796"
  },
  "shchelkovo": {
    "coordinates": [
      55.913818,
      38.035478
    ],
    "city": "Щелково",
    "inCity": "в Щелково",
    "address": "Заводская улица, 2к88",
    "fullAddress": "Щёлково, Заводская улица, 2к88",
    "phone": 84954093741,
    "yandex": "86b36d35b4d7ca20"
  },
  "shcherbinka": {
    "coordinates": [
      55.492156,
      37.560484
    ],
    "city": "Щербинка",
    "inCity": "в Щербинке",
    "address": "Южная улица, 14",
    "fullAddress": "Щербинка, Южная улица, 14",
    "phone": 84954093741,
    "yandex": "3fb91ed8cae84553"
  }
}