{
  "master": {
  },
  "moscow": {
    "city": "Москва",
    "inCity": "в Москве",
    "address": "",
    "coordinates": [55.755814, 37.617635],
    "phone": 84951310265,
    "yandex": "74351cfbf0d24cdf"
  },
  "himki": {
    "city": "Химки",
    "inCity": "в Химках",
    "address": "",
    "coordinates": [55.888796, 37.430328],
    "phone": 84951310265,
    "yandex": "5cd94bb019454935"
  },
  "dolgoprudnyi": {
    "city": "Долгопрудный",
    "inCity": "в Долгопрудном",
    "address": "",
    "coordinates": [55.933620, 37.514401],
    "phone": 84951310265,
    "yandex": "18f4ab7e50470ca1"
  },
  "lobnia": {
    "city": "Лобня",
    "inCity": "в Лобне",
    "address": "",
    "coordinates": [56.012053, 37.475082],
    "phone": 84951310265,
    "yandex": "d05dce61357556dc"
  },
  "mytishchi": {
    "city": "Мытищи",
    "inCity": "в Мытищах",
    "address": "",
    "coordinates": [55.910503, 37.736330],
    "phone": 84951310265,
    "yandex": "0f553004c5414366"
  },
  "pushkino": {
    "city": "Пушкино",
    "inCity": "в Пушкине",
    "address": "",
    "coordinates": [56.010428, 37.847155],
    "phone": 84951310265,
    "yandex": "36b0e4a500a7c0ef"
  },
  "korolev": {
    "city": "Королев",
    "inCity": "в Королеве",
    "address": "",
    "coordinates": [55.922212, 37.854629],
    "phone": 84951310265,
    "yandex": "2fb22382b30a2348"
  },
  "ivanteevka": {
    "city": "Ивантеевка",
    "inCity": "в Ивантеевке",
    "address": "",
    "coordinates": [55.970000, 37.917574],
    "phone": 84951310265,
    "yandex": "0dcc835e300424e2"
  },
  "shchelkovo": {
    "city": "Щелково",
    "inCity": "в Щелково",
    "address": "",
    "coordinates": [55.923387, 37.978399],
    "phone": 84951310265,
    "yandex": "c8ccc41bfe0e410e"
  },
  "balashiha": {
    "city": "Балашиха",
    "inCity": "в Балашихе",
    "address": "",
    "coordinates": [55.796339, 37.938199],
    "phone": 84951310265,
    "yandex": "8d302fdb33012f28"
  },
  "reutov": {
    "city": "Реутов",
    "inCity": "в Реутове",
    "address": "",
    "coordinates": [55.760515, 37.855141],
    "phone": 84951310265,
    "yandex": "130ca74c8dee5675"
  },
  "zheleznodorozhnyi": {
    "city": "Железнодорожный",
    "inCity": "в Железнодорожном",
    "address": "",
    "coordinates": [55.746436, 38.009049],
    "phone": 84951310265,
    "yandex": "16b6449ae7818890"
  },
  "lyubertcy": {
    "city": "Люберцы",
    "inCity": "в Люберцах",
    "address": "",
    "coordinates": [55.676494, 37.898116],
    "phone": 84951310265,
    "yandex": "3c121b2d7f5fb112"
  },
  "kotelniki": {
    "city": "Котельники",
    "inCity": "в Котельниках",
    "address": "",
    "coordinates": [55.659840, 37.863199],
    "phone": 84951310265,
    "yandex": "b963c2eab9fdf326"
  },
  "dzerzhinskii": {
    "city": "Дзержинский",
    "inCity": "в Дзержинском",
    "address": "",
    "coordinates": [55.630960, 37.849679],
    "phone": 84951310265,
    "yandex": "5c26f6501d83eb9e"
  },
  "zhukovskii": {
    "city": "Жуковский",
    "inCity": "в Жуковском",
    "address": "",
    "coordinates": [55.597780, 38.119497],
    "phone": 84951310265,
    "yandex": "3a7014cd5a5940cf"
  },
  "vidnoe": {
    "city": "Видное",
    "inCity": "в Видном",
    "address": "",
    "coordinates": [55.557174, 37.708644],
    "phone": 84951310265,
    "yandex": "e3bbd71bfdff3ca4"
  },
  "shcherbinka": {
    "city": "Щербинка",
    "inCity": "в Щербинке",
    "address": "",
    "coordinates": [55.508743, 37.563314],
    "phone": 84951310265,
    "yandex": "0bf3831c760d405d"
  },
  "podolsk": {
    "city": "Подольск",
    "inCity": "в Подольске",
    "address": "",
    "coordinates": [55.431177, 37.544737],
    "phone": 84951310265,
    "yandex": "bd26522157af73b3"
  },
  "domodedovo": {
    "city": "Домодево",
    "inCity": "в Домодедово",
    "address": "",
    "coordinates": [55.437112, 37.768049],
    "phone": 84951310265,
    "yandex": "a2dc9adc0410c1e6"
  },
  "odintcovo": {
    "city": "Одинцово",
    "inCity": "в Одинцово",
    "address": "",
    "coordinates": [55.678895, 37.263870],
    "phone": 84951310265,
    "yandex": "e51ae2ad0d624db6"
  },
  "krasnogorsk": {
    "city": "Красногорск",
    "inCity": "в Красногорске",
    "address": "",
    "coordinates": [55.831099, 37.330192],
    "phone": 84951310265,
    "yandex": "8bd075b98b72c1e4"
  },
  "nahabino": {
    "city": "Нахабино",
    "inCity": "в Нахабино",
    "address": "",
    "coordinates": [55.847149, 37.180138],
    "phone": 84951310265,
    "yandex": ""
  },
  "dedovsk": {
    "city": "Дедовск",
    "inCity": "в Дедовске",
    "address": "",
    "coordinates": [55.859984, 37.120669],
    "phone": 84951310265,
    "yandex": "5f781a324b4447b7"
  },
  "zelenograd": {
    "city": "Зеленоград",
    "inCity": "в Зеленограде",
    "address": "",
    "coordinates": [55.991893, 37.214382],
    "phone": 84951310265,
    "yandex": "8adb639fa0602df6"
  },
  "istra": {
    "city": "Истра",
    "inCity": "в Истре",
    "address": "",
    "coordinates": [55.914287, 36.860284],
    "phone": 84951310265,
    "yandex": "49d0522920eab08a"
  },
  "zvenigorod": {
    "city": "Звенигород",
    "inCity": "в Звенигороде",
    "address": "",
    "coordinates": [55.729686, 36.855325],
    "phone": 84951310265,
    "yandex": "04857f6761699c7a"
  },
  "novogorsk": {
    "city": "Новогорск",
    "inCity": "в Новогорске",
    "address": "",
    "coordinates": [55.892178, 37.350279],
    "phone": 84951310265,
    "yandex": "ad0f6997023b5536"
  },
  "shodnya": {
    "city": "Сходня",
    "inCity": "в Сходне",
    "address": "",
    "coordinates": [55.951572, 37.295607],
    "phone": 84951310265,
    "yandex": "ff52091b246cfe68"
  }
}